{"offices": [{"address": "70 Pasir Panjang Road, #03-71, \nMapletree Business City \nSingapore 117371", "id": "singapore", 
"image": "https://lh3.googleusercontent.com/--5H57B8aG4-DX9s79Spo3ygrsI9NMFnZo1uTZzs5s5AeeOvmiy81k__tu9r7JbRTTLzryK-oUy0UREclmD_qfV81VvaT4K9jJa8gg",
 "lat": 1.276466, "lng": 103.798965, "name": "Singapore", "phone": "+65 6521-8000", "region": "asia-pacific"},
 {"address": "48 Pagoda Street", "id": "singapore tourism", "image": "www.yoursingapore.com/content/dam/desktop/global/see-do-singapore/culture-heritage/chinatown-heritage-centre-carousel01-rect.jpg", "lat": 1.28351, "lng": 103.84435, "name": "Chinatown Heritage Centre, Singapore", "phone": "", "region": "asia-pacific"},
{"address": "158 Telok Ayer Street", "id": "singapore tourism", "image": "www.yoursingapore.com/content/dam/desktop/global/see-do-singapore/culture-heritage/thian-hock-kheng-temple-carousel01-rect.jpg", "lat": 1.28094, "lng": 103.84763, "name": "Thian Hock Keng Temple, Singapore", "phone": "", "region": "asia-pacific"},
{"address": "139 Ceylon Road", "id": "singapore tourism", "image": "www.yoursingapore.com/content/dam/desktop/global/see-do-singapore/culture-heritage/eurasian-heritage-centre-carousel01-rect.jpg", "lat": 1.31007, "lng": 103.89942, "name": "Eurasian Heritage Centre: Singapore Attraction", "phone": "", "region": "asia-pacific"},
{"address": "", "id": "singapore tourism", "image": "www.yoursingapore.com/content/dam/desktop/global/see-do-singapore/architecture/shophouses-typology-carousel01-rect.jpg", "lat": 1.2772186, "lng": 103.8373356, "name": "Shophouses", "phone": "", "region": "asia-pacific"},
{"address": "1 Cantonment Road", "id": "singapore tourism", "image": "www.yoursingapore.com/content/dam/desktop/global/see-do-singapore/architecture/the-pinnacle-duxton-carousel01-rect.jpg", "lat": 1.27549, "lng": 103.84142, "name": "Pinnacle@Duxton", "phone": "", "region": "asia-pacific"},
{"address": "4001 Beach Road", "id": "singapore tourism", "image": "/content/dam/desktop/global/see-do-singapore/architecture/hajjah-fatimah-mosque-carousel01-rect.jpg", "lat": 1.30291, "lng": 103.86285, "name": "Hajjah Fatimah Mosque", "phone": "", "region": "asia-pacific"},
{"address": "262 Pasir Panjang Road", "id": "singapore tourism", "image": "", "lat": 1.28551, "lng": 103.78314, "name": "Haw Par Villa: Singapore Theme Park", "phone": "", "region": "asia-pacific"},
{"address": "157 Neil Road", "id": "singapore tourism", "image": "www.yoursingapore.com/content/dam/desktop/global/see-do-singapore/culture-heritage/baba-house-carousel02-rect.jpg", "lat": 1.27731, "lng": 103.83731, "name": "NUS Baba House - Singapore Peranakan Architecture", "phone": "", "region": "asia-pacific"},
{"address": "31 Mohamed Sultan Road", "id": "singapore tourism", "image": "", "lat": 1.29316, "lng": 103.841222, "name": "Hong San See Temple Singapore", "phone": "", "region": "asia-pacific"},
{"address": "11 Stamford Road", "id": "singapore tourism", "image": "www.yoursingapore.com/content/dam/desktop/global/see-do-singapore/architecture/capitol-building-carousel01-rect-norender.jpg", "lat": 1.29354, "lng": 103.85157, "name": "Capitol Building Singapore", "phone": "", "region": "asia-pacific"},
{"address": "1 Esplanade Drive", "id": "singapore tourism", "image": "www.yoursingapore.com/content/dam/desktop/global/see-do-singapore/architecture/the-esplanade-theatres-on-the-bay-carousel01-rect.jpg", "lat": 1.28986, "lng": 103.85528, "name": "Esplanade Theatre", "phone": "", "region": "asia-pacific"},
{"address": "18 Marina Gardens Drive", "id": "singapore tourism", "image": "www.yoursingapore.com/content/dam/desktop/global/see-do-singapore/architecture/gardens-by-the-bay-carousel01-rect.jpg", "lat": 1.281568, "lng": 103.863613, "name": "Gardens by the Bay", "phone": "", "region": "asia-pacific"},
{"address": "180-226 Depot Road", "id": "singapore tourism", "image": "", "lat": 1.28199, "lng": 103.80305, "name": "The Interlace", "phone": "", "region": "asia-pacific"},
{"address": "3 Upper Pickering Street", "id": "singapore tourism", "image": "www.yoursingapore.com/content/dam/desktop/global/see-do-singapore/architecture/parkroyal-pickering-carousel01-rect.jpg", "lat": 1.285563, "lng": 103.846522, "name": "PARKROYAL on Pickering", "phone": "", "region": "asia-pacific"},
{"address": "1 McNally Street", "id": "singapore tourism", "image": "www.yoursingapore.com/content/dam/desktop/global/see-do-singapore/architecture/503-lasalle-college-of-the-arts-carousel01-rect..jpg", "lat": 1.3029, "lng": 103.8516, "name": "Lasalle College of the Arts", "phone": "", "region": "asia-pacific"},
{"address": "1 St Andrew's Road", "id": "singapore tourism", "image": "www.yoursingapore.com/content/dam/desktop/global/see-do-singapore/architecture/old-supreme-court-carousel01-rect.jpg", "lat": 1.2897, "lng": 103.85128, "name": "Old Supreme Court Singapore", "phone": "", "region": "asia-pacific"},
{"address": "Seng Poh Road and Tiong Bahru Road", "id": "singapore tourism", "image": "www.yoursingapore.com/content/dam/desktop/global/see-do-singapore/architecture/sit-flat-carousel01-rect.jpg", "lat": 1.28351, "lng": 103.8336, "name": "SIT Flats Singapore", "phone": "", "region": "asia-pacific"},
{"address": "18 Raffles Quay", "id": "singapore tourism", "image": "www.yoursingapore.com/content/dam/desktop/global/see-do-singapore/architecture/lau-pa-sat-carousel01-rect.jpg", "lat": 1.28072, "lng": 103.85044, "name": "Lau Pa Sat Singapore", "phone": "", "region": "asia-pacific"},
{"address": "85 Sultan Gate", "id": "singapore tourism", "image": "www.yoursingapore.com/content/dam/desktop/global/see-do-singapore/culture-heritage/malay-heritage-centre-carousel01-rect.jpg", "lat": 1.30309, "lng": 103.85986, "name": "Malay Heritage Centre, Singapore", "phone": "", "region": "asia-pacific"},
{"address": "39 Armenian Street", "id": "singapore tourism", "image": "www.yoursingapore.com/content/dam/desktop/global/see-do-singapore/culture-heritage/peranakan-museum-carousel01-rect.jpg", "lat": 1.29421, "lng": 103.8492, "name": "Peranakan Museum Singapore: History & Culture", "phone": "", "region": "asia-pacific"},
{"address": "1 Beach Road", "id": "singapore tourism", "image": "www.yoursingapore.com/content/dam/desktop/global/see-do-singapore/architecture/raffles-hotel-carousel03-rect.jpg", "lat": 1.29579, "lng": 103.85404, "name": "Raffles Singapore", "phone": "", "region": "asia-pacific"},
{"address": "9 Lock Road", "id": "singapore tourism", "image": "www.yoursingapore.com/content/dam/desktop/global/see-do-singapore/arts/543-GillmanBarracks-Carousel01-rect.jpg", "lat": 1.2784, "lng": 103.80459, "name": "Gillman Barracks .com/content/dam/desktop/global/see-do-singapore/arts/543-GillmanBarracks-Carousel01-rect.jpg", "phone": "", "region": "asia-pacific"},
{"address": "93 Stamford Road", "id": "singapore tourism", "image": "www.yoursingapore.com/content/dam/desktop/global/see-do-singapore/history/national-museum-of-singapore-carousel01-rect.jpg", "lat": 1.29689, "lng": 103.84883, "name": "National Museum of Singapore", "phone": "", "region": "asia-pacific"},
{"address": "825B Chuan Hoe Avenue", "id": "singapore tourism", "image": "www.yoursingapore.com/content/dam/desktop/global/see-do-singapore/history/japanese-cemetery-park-carousel01-rect.jpg", "lat": 1.36431, "lng": 103.87584, "name": "The Japanese Cemetery Park", "phone": "", "region": "asia-pacific"},
{"address": "1 Empress Place", "id": "singapore tourism", "image": "www.yoursingapore.com/content/dam/desktop/global/see-do-singapore/history/dalhousie-obelisk-carousel01-rect.jpg", "lat": 1.28704, "lng": 103.85238, "name": "Dalhousie Obelisk, a Singapore Landmark", "phone": "", "region": "asia-pacific"},
{"address": "Raffles Landing Site , 59 Boat Quay", "id": "singapore tourism", "image": "", "lat": 1.287766, "lng": 103.850845, "name": "Raffles Statue re.com/en/see-do-singapore/history/memorials/sir-raffles-statue-landing-site.html", "phone": "", "region": "asia-pacific"},
{"address": "23-B Coleman Street", "id": "singapore tourism", "image": "www.yoursingapore.com/content/dam/desktop/global/see-do-singapore/history/singapore-philatetic-museum-carousel01-rect.jpg", "lat": 1.29294, "lng": 103.8487, "name": "Singapore Philatelic Museum", "phone": "", "region": "asia-pacific"},
{"address": "Esplanade Park, Connaught Drive", "id": "singapore tourism", "image": "www.yoursingapore.com/content/dam/desktop/global/see-do-singapore/history/lim-bo-seng-memorial-carousel01-rect.jpg", "lat": 1.288483, "lng": 103.853027, "name": "Lim Bo Seng Memorial", "phone": "", "region": "asia-pacific"},
{"address": "9 Woodlands Road", "id": "singapore tourism", "image": "www.yoursingapore.com/content/dam/desktop/global/see-do-singapore/history/kranji-war-memorial-carousel01-rect.jpg", "lat": 1.41903, "lng": 103.75749, "name": "Kranji War Memorial Landmark in Singapore", "phone": "", "region": "asia-pacific"},
{"address": "Esplanade Park", "id": "singapore tourism", "image": "www.yoursingapore.com/content/dam/desktop/global/see-do-singapore/history/indian-national-army-carousel01-rect.jpg", "lat": 1.289954, "lng": 103.854217, "name": "Indian National Army (INA) Monument in Singapore", "phone": "", "region": "asia-pacific"},
{"address": "31-K Pepys Road", "id": "singapore tourism", "image": "www.yoursingapore.com/content/dam/desktop/global/see-do-singapore/history/reflections-at-bukit-chandu-carousel01-rect.jpg", "lat": 1.27954, "lng": 103.79433, "name": "Reflections at Bukit Chandu: Singapore War Memorial", "phone": "", "region": "asia-pacific"},
{"address": "Esplanade Park, Connaught Drive", "id": "singapore tourism", "image": "www.yoursingapore.com/content/dam/desktop/global/see-do-singapore/history/cenotaph-carousel01-rect.jpg", "lat": 1.290348, "lng": 103.8538376, "name": "The Cenotaph - a Singapore War Memorial Landmark", "phone": "", "region": "asia-pacific"},
{"address": "Bras Basah Road & Beach Road intersection", "id": "singapore tourism", "image": "", "lat": 1.293123, "lng": 103.854618, "name": "The Civilian War Memorial park in Singapore", "phone": "", "region": "asia-pacific"},
{"address": "141 Serangoon Road", "id": "singapore tourism", "image": "www.yoursingapore.com/content/dam/desktop/global/see-do-singapore/culture-heritage/sri-veeramakaliamman-temple-carousel01-rect.jpg", "lat": 1.30779, "lng": 103.85258, "name": "Sri Veeramakaliamman Temple: Hindu Temple in Singapore", "phone": "", "region": "asia-pacific"},
{"address": "24/26 Waterloo Street", "id": "singapore tourism", "image": "", "lat": 1.29821, "lng": 103.85081, "name": "Maghain Aboth Synagogue", "phone": "", "region": "asia-pacific"},
{"address": "3 Muscat Street", "id": "singapore tourism", "image": "", "lat": 1.302379, "lng": 103.859171, "name": "Sultan Mosque (Masjid Sultan) Singapore", "phone": "", "region": "asia-pacific"},
{"address": "244 South Bridge Road", "id": "singapore tourism", "image": "www.yoursingapore.com/content/dam/desktop/global/see-do-singapore/culture-heritage/sri-mariamman-temple-carousel02-rect.jpg", "lat": 1.28243, "lng": 103.84538, "name": "Sri Mariamman Temple: Hindu Temple in Singapore", "phone": "", "region": "asia-pacific"},
{"address": "60 Hill Street", "id": "singapore tourism", "image": "www.yoursingapore.com/content/dam/desktop/global/see-do-singapore/culture-heritage/armenian-church-carousel01-rect.jpg", "lat": 1.29293, "lng": 103.84966, "name": "Armenian Church in Singapore", "phone": "", "region": "asia-pacific"},
{"address": "30 Victoria Street", "id": "singapore tourism", "image": "www.yoursingapore.com/content/dam/desktop/global/see-do-singapore/architecture/chijmes-carousel01-rect.jpg", "lat": 1.29526, "lng": 103.85168, "name": "CHIJMES Singapore", "phone": "", "region": "asia-pacific"},
{"address": "11 St Andrew's Road", "id": "singapore tourism", "image": "www.yoursingapore.com/content/dam/desktop/global/see-do-singapore/culture-heritage/st-andrews-cathedral-temple-carousel01-rect-norender.jpg", "lat": 1.29249, "lng": 103.85231, "name": "St Andrewrew's Cathedral", "phone": "", "region": "asia-pacific"},
{"address": "6 Bayfront Ave", "id": "singapore tourism", "image": "www.yoursingapore.com/content/dam/desktop/global/see-do-singapore/arts/art-science-musuem-carousel01-rect.jpg", "lat": 1.28624, "lng": 103.85929, "name": "ArtScience Museum Singapore", "phone": "", "region": "asia-pacific"},
{"address": "351 Upper Bukit Timah Road", "id": "singapore tourism", "image": "www.yoursingapore.com/content/dam/desktop/global/see-do-singapore/history/memories-at-ford-factory-carousel01-rect.jpg", "lat": 1.35232, "lng": 103.76883, "name": "Old Ford Factory Singapore Museum", "phone": "", "region": "asia-pacific"},
{"address": "40 Pagoda Street, Level 1", "id": "singapore tourism", "image": "www.yoursingapore.com/content/dam/desktop/global/see-do-singapore/history/singapore-coins-and-notes-museum-carousel01-rect.jpg", "lat": 1.28343, "lng": 103.84452, "name": "Singapore Coins and Notes Museum & Museum Singapore", "phone": "", "region": "asia-pacific"},
{"address": "45 Maxwell Road, The URA Centre", "id": "singapore tourism", "image": "www.yoursingapore.com/content/dam/desktop/global/see-do-singapore/history/singapore-city-gallery-carousel02-rect.jpg", "lat": 1.27987, "lng": 103.84513, "name": "Singapore City Gallery", "phone": "", "region": "asia-pacific"},
{"address": "1000 Upper Changi Road North", "id": "singapore tourism", "image": "www.yoursingapore.com/content/dam/desktop/global/see-do-singapore/history/changi-museum-carousel01-rect.jpg", "lat": 1.36218, "lng": 103.97403, "name": "Changi Museum Singapore", "phone": "", "region": "asia-pacific"},
{"address": "26 Seah Street", "id": "singapore tourism", "image": "www.yoursingapore.com/content/dam/desktop/global/see-do-singapore/history/mint-museum-of-toys-carousel02-rect.jpg", "lat": 1.29631, "lng": 103.85439, "name": "MINT Museum of Toys Singapore & Toy Museum", "phone": "", "region": "asia-pacific"},
{"address": "12 Nanyang Drive", "id": "singapore tourism", "image": "www.yoursingapore.com/content/dam/desktop/global/see-do-singapore/culture-heritage/chinese-heritage-centre-carousel02-rect.jpg", "lat": 1.34379, "lng": 103.68398, "name": "Chinese Heritage Centre, Singapore", "phone": "", "region": "asia-pacific"},
{"address": "3 Muscat Street", "id": "singapore tourism", "image": "www.yoursingapore.com/content/dam/desktop/global/see-do-singapore/places-to-see/kampong-glam-carousel01-rect-norender.jpg", "lat": 1.30238, "lng": 103.8595, "name": "Kampong Glam & Malay Culture in Singapore", "phone": "", "region": "asia-pacific"},
{"address": "43 Malan Road", "id": "singapore tourism", "image": "www.yoursingapore.com/content/dam/desktop/global/see-do-singapore/arts/afiq_omar_rect.jpg", "lat": 1.275, "lng": 103.8045, "name": "Contemporary Arts Center", "phone": "", "region": "asia-pacific"},
{"address": "45 Armenian Street", "id": "singapore tourism", "image": "", "lat": 1.2944, "lng": 103.84934, "name": "The Substation, Singapore Contemporary Art Centre", "phone": "", "region": "asia-pacific"},
{"address": "28 Maxwell Road, Red Dot Traffic", "id": "singapore tourism", "image": "www.yoursingapore.com/content/dam/desktop/global/see-do-singapore/arts/red-dot-design-museum-carousel01-rect.jpg", "lat": 1.27828, "lng": 103.84572, "name": "Red Dot Design Museum, Singapore", "phone": "", "region": "asia-pacific"},
{"address": "71 Bras Basah Road", "id": "singapore tourism", "image": "www.yoursingapore.com/content/dam/desktop/global/see-do-singapore/arts/singapore-art-museum-carousel01-rect-norender.jpg", "lat": 1.297424, "lng": 103.851068, "name": "Singapore Art Museum", "phone": "", "region": "asia-pacific"},
{"address": "1 Esplanade Drive", "id": "singapore tourism", "image": "www.yoursingapore.com/content/dam/desktop/global/see-do-singapore/arts/the-esplanade-carousel01-rect.jpg", "lat": 1.2898, "lng": 103.85528, "name": "Esplanade Theatres on the Bay", "phone": "", "region": "asia-pacific"},
{"address": "111 Middle Road", "id": "singapore tourism", "image": "www.yoursingapore.com/content/dam/desktop/global/see-do-singapore/arts/national-design-centre-carousel01-rect.jpg", "lat": 1.29882, "lng": 103.85351, "name": "National Design Centre, Singapore", "phone": "", "region": "asia-pacific"},
{"address": "11 Empress Place", "id": "singapore tourism", "image": "www.yoursingapore.com/content/dam/desktop/global/see-do-singapore/arts/victoria-theatre-concert-hall-caurousel01-rect.jpg", "lat": 1.28837, "lng": 103.851641, "name": "Victoria Theatre Singapore", "phone": "", "region": "asia-pacific"},
{"address": "50 Kent Ridge Crescent, National University of Singapore", "id": "singapore tourism", "image": "www.yoursingapore.com/content/dam/desktop/global/see-do-singapore/arts/nus-museum-carousel01-rect.jpg", "lat": 1.3017749, "lng": 103.7726864, "name": "NUS University Museum, Singapore", "phone": "", "region": "asia-pacific"},
{"address": "12 Tai Gin Road", "id": "singapore tourism", "image": "www.yoursingapore.com/content/dam/desktop/global/see-do-singapore/history/sun-yat-sen-memorial-hall-carousel01-rect.jpg", "lat": 1.32795, "lng": 103.84692, "name": "Sun Yat Sen Memorial Hall", "phone": "", "region": "asia-pacific"},
{"address": "1 Empress Place", "id": "singapore tourism", "image": "www.yoursingapore.com/content/dam/desktop/global/see-do-singapore/history/asian-civilizations-museum-carousel01-rect.jpg", "lat": 1.287384, "lng": 103.851723, "name": "Asian Civilisations Museum & Singapore Museum", "phone": "", "region": "asia-pacific"},
{"address": "1 Cluny Road", "id": "singapore tourism", "image": "www.yoursingapore.com/content/dam/desktop/global/see-do-singapore/nature-wildlife/singapore-botanic-gardens-carousel01-rect.jpg", "lat": 1.31384, "lng": 103.815914, "name": "Singapore Botanic Gardens", "phone": "", "region": "asia-pacific"},
{"address": "80 Mandai Lake Road", "id": "singapore tourism", "image": "www.yoursingapore.com/content/dam/desktop/global/see-do-singapore/nature-wildlife/singapore-zoo-carousel04-rect.jpg", "lat": 1.404348, "lng": 103.793023, "name": "Singapore Zoo: Attractions & Things to Do", "phone": "", "region": "asia-pacific"},
{"address": "80 Mandai Lake Road", "id": "singapore tourism", "image": "www.yoursingapore.com/content/dam/desktop/global/see-do-singapore/nature-wildlife/river-safari-singapore-carousel01-rect.jpg", "lat": 1.403732, "lng": 103.789423, "name": "River Safari Singapore", "phone": "", "region": "asia-pacific"},
{"address": "109 Mount Faber Road", "id": "singapore tourism", "image": "www.yoursingapore.com/content/dam/desktop/global/see-do-singapore/nature-wildlife/mount-faber-carouse01-rect.jpg", "lat": 1.2713746, "lng": 103.8192057, "name": "Cable Car Singapore & Mount Faber", "phone": "", "region": "asia-pacific"},
{"address": "80 Mandai Lake Road", "id": "singapore tourism", "image": "www.yoursingapore.com/content/dam/desktop/global/see-do-singapore/nature-wildlife/night-safari-carousel01-rect.jpg", "lat": 1.402187, "lng": 103.788061, "name": "Night Safari, Singapore", "phone": "", "region": "asia-pacific"},
{"address": "Pulau Ubin", "id": "singapore tourism", "image": "", "lat": 1.4137409, "lng": 103.9592605, "name": "Pulau Ubin & Singapore Islands", "phone": "", "region": "asia-pacific"},
{"address": "60 Bukit Timah Road", "id": "singapore tourism", "image": "www.yoursingapore.com/content/dam/desktop/global/see-do-singapore/places-to-see/little-india-carousel01-rect.jpg", "lat": 1.30723, "lng": 103.84982, "name": "Little India Singapore: History & Culture", "phone": "", "region": "asia-pacific"},
{"address": "437 Orchard Road", "id": "singapore tourism", "image": "www.yoursingapore.com/content/dam/desktop/global/see-do-singapore/places-to-see/orchard-carousel01-rect.jpg", "lat": 1.30429, "lng": 103.83249, "name": "Orchard Road, Singapore: Asia's Most Famous Shopping Street", "phone": "", "region": "asia-pacific"},
{"address": "MacRitchie Reservoir Park", "id": "singapore tourism", "image": "www.yoursingapore.com/content/dam/desktop/global/see-do-singapore/nature-wildlife/macritchie-nature-reserve-carousel01-rect.jpg", "lat": 1.344843, "lng": 103.822346, "name": "MacRitchie Singapore & Singapore Nature Reserve", "phone": "", "region": "asia-pacific"},
{"address": "18 Marina Gardens Drive", "id": "singapore tourism", "image": "www.yoursingapore.com/content/dam/desktop/global/see-do-singapore/nature-wildlife/gardens-by-the-bay-carousel02-rect.jpg", "lat": 1.281568, "lng": 103.863613, "name": "Gardens by the Bay", "phone": "", "region": "asia-pacific"},
{"address": "150 North Bridge Road", "id": "singapore tourism", "image": "www.yoursingapore.com/content/dam/desktop/global/see-do-singapore/places-to-see/civic-district-carousel01-rect.jpg", "lat": 1.29324, "lng": 103.85222, "name": "Civic District, Singapore", "phone": "", "region": "asia-pacific"},
{"address": "81 Telok Blangah Road", "id": "singapore tourism", "image": "www.yoursingapore.com/content/dam/desktop/global/see-do-singapore/places-to-see/harbourfront-carousel01-rect.jpg", "lat": 1.26532, "lng": 103.82057, "name": "HarbourFront, Singapore", "phone": "", "region": "asia-pacific"},
{"address": "220 Victoria Street", "id": "singapore tourism", "image": "www.yoursingapore.com/content/dam/desktop/global/see-do-singapore/places-to-see/bras-basah-bugis-carousel01-rect.jpg", "lat": 1.30069, "lng": 103.85624, "name": "Bras Basah.Bugis, Singapore Cultural District", "phone": "", "region": "asia-pacific"},
{"address": "8 Queen Street", "id": "singapore tourism", "image": "www.yoursingapore.com/content/dam/desktop/global/see-do-singapore/arts/8q-sam-carousel01-rect.jpg", "lat": 1.29731, "lng": 103.85168, "name": "SAM at 8Q & Singapore Art Museum", "phone": "", "region": "asia-pacific"},
{"address": "", "id": "singapore tourism", "image": "www.yoursingapore.com/content/dam/desktop/global/see-do-singapore/beyond-singapore/beyond-singapore-carousel01-rect.jpg", "lat": 0.0, "lng": 0.0, "name": "Cruises from Singapore", "phone": "", "region": "asia-pacific"},
{"address": "218 South Bridge Road", "id": "singapore tourism", "image": "www.yoursingapore.com/content/dam/desktop/global/see-do-singapore/culture-heritage/jamae-mosque-carousel01-rect.jpg", "lat": 1.28311, "lng": 103.84554, "name": "Jamae Mosque (Masjid Chulia) Singapore", "phone": "", "region": "asia-pacific"},
{"address": "LASALLE College of the Arts, 1 McNally Street", "id": "singapore tourism", "image": "www.yoursingapore.com/content/dam/desktop/global/see-do-singapore/arts/institute-for-contemporary-art-carousel01-rect.jpg", "lat": 1.3029, "lng": 103.8516, "name": "Institute of Contemporary Arts Singapore", "phone": "", "region": "asia-pacific"},
{"address": "30 Raffles Avenue", "id": "singapore tourism", "image": "www.yoursingapore.com/content/dam/desktop/global/see-do-singapore/recreation-leisure/singapore-flyer-carousel01-rect-norender.jpg", "lat": 1.289299, "lng": 103.863137, "name": "Singapore Flyer", "phone": "", "region": "asia-pacific"},
{"address": "10 Bayfront Avenue", "id": "singapore tourism", "image": "www.yoursingapore.com/content/dam/desktop/global/see-do-singapore/architecture/marina-bay-sands-carousel01-rect.jpg", "lat": 1.283456, "lng": 103.86081, "name": "Marina Bay Sands\u00ae", "phone": "", "region": "asia-pacific"},
{"address": "8 Marina Gardens Drive", "id": "singapore tourism", "image": "www.yoursingapore.com/content/dam/desktop/global/see-do-singapore/architecture/marina-barrage-carousel01-rect.jpg", "lat": 1.28063, "lng": 103.87159, "name": "Marina Barrage", "phone": "", "region": "asia-pacific"},
{"address": "Henderson Road", "id": "singapore tourism", "image": "www.yoursingapore.com/content/dam/desktop/global/see-do-singapore/architecture/henderson-waves-carousel01-rect.jpg", "lat": 1.2762425, "lng": 103.8152539, "name": "Henderson Waves Bridge", "phone": "", "region": "asia-pacific"},
{"address": "Labrador Villa Road", "id": "singapore tourism", "image": "www.yoursingapore.com/content/dam/desktop/global/see-do-singapore/nature-wildlife/labrador-nature-reserve-carousel01-rect.jpg", "lat": 1.265833, "lng": 103.801944, "name": "Labrador Nature Reserve", "phone": "", "region": "asia-pacific"},
{"address": "11 Marina Boulevard", "id": "singapore tourism", "image": "www.yoursingapore.com/content/dam/desktop/global/see-do-singapore/places-to-see/marina-bay-area-carousel01-rect.jpg", "lat": 1.2802848, "lng": 103.856454, "name": "Marina Bay Singapore: Attractions & Things to do", "phone": "", "region": "asia-pacific"},
{"address": "10 Bayfront Avenue", "id": "singapore tourism", "image": "www.yoursingapore.com/content/dam/desktop/global/see-do-singapore/recreation-leisure/marina-bay-sands-carousel01-rect.jpg", "lat": 1.2838785, "lng": 103.85899, "name": "Marina Bay Sands, Singapore", "phone": "", "region": "asia-pacific"},
{"address": "Chek Jawa, Pulau Ubin", "id": "singapore tourism", "image": "www.yoursingapore.com/content/dam/desktop/global/see-do-singapore/nature-wildlife/chek-jawa-carousel03-rect-norender.jpg", "lat": 1.407866, "lng": 103.96371, "name": "Chek Jawa", "phone": "", "region": "asia-pacific"},
{"address": "One Fullerton", "id": "singapore tourism", "image": "www.yoursingapore.com/content/dam/desktop/global/see-do-singapore/recreation-leisure/merlion-park-skypark-carousel01-rect.jpg", "lat": 1.286862, "lng": 103.854552, "name": "Merlion Park, Singapore: Attractions & Things to Do", "phone": "", "region": "asia-pacific"},
{"address": "Level 57, 10 Bayfront Avenue", "id": "singapore tourism", "image": "www.yoursingapore.com/content/dam/desktop/global/see-do-singapore/recreation-leisure/marina-bay-sands-skypark-carousel01-rect.jpg", "lat": 1.283456, "lng": 103.86081, "name": "Marina Bay Sands\u00ae SkyPark", "phone": "", "region": "asia-pacific"},
{"address": "8 Sentosa Gateway, Sentosa Island", "id": "singapore tourism", "image": "www.yoursingapore.com/content/dam/desktop/global/see-do-singapore/recreation-leisure/resorts-world-sentosa-carousel01-rect.jpg", "lat": 1.25675, "lng": 103.82033, "name": "Resorts World Sentosa, Singapore", "phone": "", "region": "asia-pacific"},
{"address": "Henderson Road, Mount Faber Park, Telok Blangah Hill Park", "id": "singapore tourism", "image": "www.yoursingapore.com/content/dam/desktop/global/see-do-singapore/recreation-leisure/resorts-world-sentosa-carousel01-rect.jpg", "lat": 1.280569, "lng": 103.817589, "name": "Singapore Garden & Singapore Park", "phone": "", "region": "asia-pacific"},
{"address": "301 Neo Tiew Crescent", "id": "singapore tourism", "image": "www.yoursingapore.com/content/dam/desktop/global/see-do-singapore/nature-wildlife/the-southern-ridges-carousel01-rect.jpg", "lat": 1.44672, "lng": 103.730149, "name": "Sungei Buloh", "phone": "", "region": "asia-pacific"},
{"address": "8 Sentosa Gateway, Sentosa Island", "id": "singapore tourism", "image": "www.yoursingapore.com/content/dam/desktop/global/see-do-singapore/nature-wildlife/sungei-buloh-wetland-reserve-carousel01-rect.jpg", "lat": 1.2573549, "lng": 103.8194932, "name": "S.E.A. Aquarium", "phone": "", "region": "asia-pacific"},
{"address": "10 Eu Tong Sen Street", "id": "singapore tourism", "image": "www.yoursingapore.com/content/dam/desktop/global/see-do-singapore/places-to-see/singapore-river-carousel01-rect.jpg", "lat": 1.28848, "lng": 103.84676, "name": "Singapore River: History & Culture Tours", "phone": "", "region": "asia-pacific"},
{"address": "113 East Coast Road", "id": "singapore tourism", "image": "www.yoursingapore.com/content/dam/desktop/global/see-do-singapore/places-to-see/joochiat-katong-carousel01-rect.jpg", "lat": 1.30589, "lng": 103.90448, "name": "Joo Chiat/Katong: Singapore Peranakan Neighbourhood", "phone": "", "region": "asia-pacific"},
{"address": "33 Allanbrooke Road", "id": "singapore tourism", "image": "www.yoursingapore.com/content/dam/desktop/global/see-do-singapore/places-to-see/sentosa-carousel01-rect-norender.jpg", "lat": 1.24883, "lng": 103.82809, "name": "Sentosa Island, Singapore: Leisure & Attractions", "phone": "", "region": "asia-pacific"},
{"address": "2 Banda Street", "id": "singapore tourism", "image": "www.yoursingapore.com/content/dam/desktop/global/see-do-singapore/places-to-see/chinatown-carousel01-rect.jpg", "lat": 1.2817, "lng": 103.843771, "name": "Chinatown Singapore: History & Culture", "phone": "", "region": "asia-pacific"},
{"address": "288 South Bridge Road", "id": "singapore tourism", "image": "", "lat": 1.28162, "lng": 103.84438, "name": "Buddha Tooth Relic Temple & Museum in Singapore", "phone": "", "region": "asia-pacific"},
{"address": "1 St Andrew's Road", "id": "singapore tourism", "image": "www.yoursingapore.com/content/dam/desktop/global/see-do-singapore/arts/1095-national-gallery-singapore-carousel-01-rec.jpg", "lat": 1.290141, "lng": 103.851356, "name": "National Gallery Singapore", "phone": "", "region": "asia-pacific"},
{"address": "8 Sentosa Gateway, Sentosa Island", "id": "singapore tourism", "image": "www.yoursingapore.com/content/dam/desktop/global/see-do-singapore/recreation-leisure/universal-studios-singapore-carousel01-rect.jpg", "lat": 1.254042, "lng": 103.823808, "name": "Universal Studios Singaporeywood movie theme park offers a dizzying selection of entertainment offerings.", "phone": "", "region": "asia-pacific"},
{"address": "15 Science Centre Road", "id": "singapore tourism", "image": "", "lat": 1.33295, "lng": 103.735872, "name": "Singapore Science Centre", "phone": "", "region": "asia-pacific"},
{"address": "76 Telok Ayer Street", "id": "singapore tourism", "image": "www.yoursingapore.com/content/dam/desktop/global/see-do-singapore/culture-heritage/fuk-tak-chi-carousel02-rect.jpg", "lat": 1.28292, "lng": 103.84887, "name": "Fuk Tak Chi Museum & Places of Interest", "phone": "", "region": "asia-pacific"},
{"address": "208 East Coast Road", "id": "singapore tourism", "image": "www.yoursingapore.com/content/dam/desktop/global/see-do-singapore/culture-heritage/katong-antique-house-carousel01-rect.jpg", "lat": 1.30726, "lng": 103.90714, "name": "Katong Antique House Singapore: Peranakan Heritage", "phone": "", "region": "asia-pacific"},
{"address": "1 Chinese Garden Road", "id": "singapore tourism", "image": "www.yoursingapore.com/content/dam/desktop/global/see-do-singapore/nature-wildlife/chinese-garden-carousel01-rect.jpg", "lat": 1.338611, "lng": 103.73, "name": "Chinese Garden Singapore", "phone": "", "region": "asia-pacific"},
{"address": "Along East Coast Parkway and East Coast Park Service Road", "id": "singapore tourism", "image": "www.yoursingapore.com/content/dam/desktop/global/see-do-singapore/nature-wildlife/east-coast-park-carousel03-rect.jpg", "lat": 1.300784, "lng": 103.912187, "name": "East Coast Park Singapore", "phone": "", "region": "asia-pacific"},
{"address": "Bounded by Hill Street, Canning Rise, Clemenceau Avenue and River Valley Road", "id": "singapore tourism", "image": "www.yoursingapore.com/content/dam/desktop/global/see-do-singapore/nature-wildlife/fort-canning-park-carousel01-rect.jpg", "lat": 1.295382, "lng": 103.846509, "name": "Fort Canning Park", "phone": "", "region": "asia-pacific"},
{"address": "Kusu Island", "id": "singapore tourism", "image": "", "lat": 1.2230965, "lng": 103.8605232, "name": "Kusu Island, Singapore", "phone": "", "region": "asia-pacific"},
{"address": "2 Jurong Hill", "id": "singapore tourism", "image": "www.yoursingapore.com/content/dam/desktop/global/see-do-singapore/nature-wildlife/jurong-bird-park-carousel01-rect.jpg", "lat": 1.318706, "lng": 103.706442, "name": "Jurong Bird Park, Singapore: Attractions & Things to Do", "phone": "", "region": "asia-pacific"},
{"address": "33 Hyderabad Road", "id": "singapore tourism", "image": "www.yoursingapore.com/content/dam/desktop/global/see-do-singapore/nature-wildlife/hortpark-carousel01-rect.jpg", "lat": 1.279069, "lng": 103.799724, "name": "HortPark", "phone": "", "region": "asia-pacific"},
{"address": "8 Sentosa Gateway, Sentosa Island", "id": "singapore tourism", "image": "www.yoursingapore.com/content/dam/desktop/global/see-do-singapore/recreation-leisure/adventure-cove-carousel01-rect.jpg", "lat": 1.2573388, "lng": 103.8195254, "name": "Adventure Cove Waterparkntent/dam/desktop/global/see-do-singapore/recreation-leisure/adventure-cove-carousel01-rect.jpg", "phone": "", "region": "asia-pacific"},
{"address": "1 McNally Street", "id": "singapore tourism", "image": "www.yoursingapore.com/content/dam/desktop/global/see-do-singapore/architecture/lasalle-college-of-the-arts-carousel01-rect.jpg", "lat": 1.3029, "lng": 103.8516, "name": "Lasalle College of the Arts", "phone": "", "region": "asia-pacific"}
], 
"regions": [{"coords": {"lat": 0.0524811, "lng": 127.6560787}, "id": "asia-pacific", "name": "Asia Pacific", "zoom": 3.0}]}